{
  "submissionsList": [
    {
      "id": 1,
      "task": "Work Flow: Requires Location",
      "status": "Low Risk",
      "from": "zendu@zendu.com",
      "to": "tracy@zenduit.com",
      "customer_address": "2118 Thornridge Cir. Syracuse, Connecticut 35624",
      "due_date": "Oct 6, 02:38 AM",
      "latLong": { "lat": 25.912297487164587, "lng": 28.127929687499996 }
    },
    {
      "id": 2,
      "task": "Work Flow: Requires Location",
      "status": "Low Risk",
      "from": "abc@zendu.com",
      "to": "tracy@zenduit.com",
      "customer_address": "1901 Thornridge Cir. Shiloh, Hawaii 81063",
      "due_date": "Oct 6, 01:40 PM",
      "latLong": { "lat": 26.30690495424138, "lng": 20.041992187499996 }
    },
    {
      "id": 3,
      "task": "Work Flow: Requires Location",
      "status": "Uncomplete",
      "from": "xyz@zendu.com",
      "to": "tracy@zenduit.com",
      "customer_address": "4140 Parker Rd. Allentown, New Mexico 31134",
      "due_date": "Oct 7, 01:14 AM",
      "latLong": { "lat": 27.17030840339055, "lng": 6.506835937499997 }
    },
    {
      "id": 4,
      "task": "Work Flow: Requires Location",
      "status": "Unassigned",
      "from": "zendu@zendu.com",
      "to": "tracy@zenduit.com",
      "customer_address": "2118 Thornridge Cir. Syracuse, Connecticut 35624",
      "due_date": "Oct 7, 01:14 AM",
      "latLong": { "lat": 18.59803808918268, "lng": 8.352539062499996 }
    },
    {
      "id": 5,
      "task": "Work Flow: Requires Location",
      "status": "Unassigned",
      "from": "zendu@zendu.com",
      "to": "tracy@zenduit.com",
      "customer_address": "4517 Washington Ave. Manchester, Kentucky 39495",
      "due_date": "Oct 7, 03:56 AM",
      "latLong": { "lat": 14.895629584989265, "lng": 19.514648437499996 }
    },
    {
      "id": 6,
      "task": "Work Flow: Requires Location",
      "status": "Uncomplete",
      "from": "zendu@zendu.com",
      "to": "tracy@zenduit.com",
      "customer_address": "8502 Preston Rd. Inglewood, Maine 98380",
      "due_date": "Oct 7, 04:20 PM",
      "latLong": { "lat": 15.40464321870164, "lng": 28.831054687499996 }
    },
    {
      "id": 7,
      "task": "Work Flow: Requires Location",
      "status": "Uncomplete",
      "from": "zendu@zendu.com",
      "to": "tracy@zenduit.com",
      "customer_address": "8502 Preston Rd. Inglewood, Maine 98380",
      "due_date": "Oct 8, 04:12 AM",
      "latLong": { "lat": 18.59803808918268, "lng": 8.352539062499996 }
    },
    {
      "id": 8,
      "task": "Work Flow: Requires Location",
      "status": "Low Risk",
      "from": "zendu@zendu.com",
      "to": "tracy@zenduit.com",
      "customer_address": "2118 Thornridge Cir. Syracuse, Connecticut 35624",
      "due_date": "Oct 8, 04:37 AM",
      "latLong": { "lat": 18.59803808918268, "lng": 8.352539062499996 }
    },
    {
      "id": 9,
      "task": "Work Flow: Requires Location",
      "status": "Low Risk",
      "from": "zendu@zendu.com",
      "to": "tracy@zenduit.com",
      "customer_address": "1901 Thornridge Cir. Shiloh, Hawaii 81063",
      "due_date": "Oct 9, 06:12 PM",
      "latLong": { "lat": 18.59803808918268, "lng": 8.352539062499996 }
    }
  ],
  "fromData": ["Select From", "From 1", "From 2", "From 3"],
  "headers": ["task", "status", "from", "to", "Customer Address", "Due Date"]
}
